{
  "regions": [
    {
      "id": "773ff572-49a8-4619-b291-290f1f3e4271",
      "name": "Москва",
      "coordinate": {
        "lng": 37.616219,
        "lat": 55.753277
      }
    },
    {
      "id": "08032ca7-25f5-4576-acb3-8ddb61a09def",
      "name": "Санкт-Петербург",
      "coordinate": {
        "lng": 30.314997,
        "lat": 59.938784
      }
    },
    {
      "id": "99900f85-9f44-470f-962e-5ff19e69a1ad",
      "name": "Адлер",
      "coordinate": {
        "lng": 39.962425231933594,
        "lat": 43.420260736011656
      }
    },
    {
      "id": "9e0c00bf-3b07-41b6-8b6f-08a4289a021c",
      "name": "Алматы",
      "coordinate": {
        "lng": 76.9286,
        "lat": 43.2567
      }
    },
    {
      "id": "a76a37f1-8b35-4bbe-a3eb-c3473b56e3d1",
      "name": "Анапа",
      "coordinate": {
        "lng": 37.31992,
        "lat": 44.8857
      }
    },
    {
      "id": "10f12f2a-f7e4-4183-bcec-f39a6763d341",
      "name": "Барнаул",
      "coordinate": {
        "lng": 83.776856,
        "lat": 53.346785
      }
    },
    {
      "id": "12849397-2adf-4835-8455-69c75a49a1e6",
      "name": "Благовещенск",
      "coordinate": {
        "lng": 127.530821,
        "lat": 50.283934
      }
    },
    {
      "id": "1285f05a-2ed6-4268-8d2f-797d096e327d",
      "name": "Великий Новгород",
      "coordinate": {
        "lng": 31.26703,
        "lat": 58.51527
      }
    },
    {
      "id": "0dc15184-ab0c-46d9-9acf-ca920b062219",
      "name": "Владивосток",
      "coordinate": {
        "lng": 131.88592,
        "lat": 43.115542
      }
    },
    {
      "id": "e1659dec-8233-4ef3-92c3-7172b9f9424c",
      "name": "Владикавказ",
      "coordinate": {
        "lng": 44.6678,
        "lat": 43.0367
      }
    },
    {
      "id": "f9ac8122-9fc4-44bf-a0de-08aa7d6407dd",
      "name": "Владимир",
      "coordinate": {
        "lng": 40.401511,
        "lat": 56.138518
      }
    },
    {
      "id": "cc1f8af7-4753-4b41-993f-b87a0fe602aa",
      "name": "Волгоград",
      "coordinate": {
        "lng": 44.516975,
        "lat": 48.707067
      }
    },
    {
      "id": "1a7b6df1-9737-4c18-a5d2-6f9eaaa0f11f",
      "name": "Воронеж",
      "coordinate": {
        "lng": 39.21056,
        "lat": 51.67167
      }
    },
    {
      "id": "26733bc3-3692-4e65-b0b4-ffc8649e6563",
      "name": "Екатеринбург",
      "coordinate": {
        "lng": 60.58333,
        "lat": 56.83333
      }
    },
    {
      "id": "2b74d126-f8a6-4fc7-911d-808a49e11f49",
      "name": "Ижевск",
      "coordinate": {
        "lng": 53.45667,
        "lat": 56.83333
      }
    },
    {
      "id": "c63eeb6a-8f6e-42d1-82c8-82903c085a90",
      "name": "Иннополис",
      "coordinate": {
        "lng": 48.73329162597656,
        "lat": 55.75069008704379
      }
    },
    {
      "id": "289d76a0-f0be-4f4f-b2b3-e7b559aa3ffa",
      "name": "Иркутск",
      "coordinate": {
        "lng": 104.2951247069669,
        "lat": 52.35662099372733
      }
    },
    {
      "id": "5805ff85-a3cc-4b9c-a933-f5f2e8a0d4eb",
      "name": "Йошкар-Ола",
      "coordinate": {
        "lng": 47.873308,
        "lat": 56.630486
      }
    },
    {
      "id": "c9f1337c-4a34-471d-ae8d-7fa54e597ecd",
      "name": "Казань",
      "coordinate": {
        "lng": 49.14253234863281,
        "lat": 55.81362907119958
      }
    },
    {
      "id": "513dc5f6-4b1e-4361-aa75-478b70dfcabb",
      "name": "Калининград",
      "coordinate": {
        "lng": 20.510137,
        "lat": 54.710162
      }
    },
    {
      "id": "518f8773-056b-4fa8-9ae8-406f54d47f3a",
      "name": "Калуга",
      "coordinate": {
        "lng": 36.261215,
        "lat": 54.513845
      }
    },
    {
      "id": "bc897ed4-021c-484e-a842-e4dc51deeae6",
      "name": "Кемерово",
      "coordinate": {
        "lng": 86.086847,
        "lat": 55.355198
      }
    },
    {
      "id": "7a9ac82c-8400-4522-af10-35b3fe41a25b",
      "name": "Красная Поляна",
      "coordinate": {
        "lng": 40.26557922363281,
        "lat": 43.68277040294095
      }
    },
    {
      "id": "1b0906a6-3dd8-479f-bbfd-2b95500e5580",
      "name": "Краснодар",
      "coordinate": {
        "lng": 38.997884,
        "lat": 45.04471
      }
    },
    {
      "id": "0928567f-af99-40f2-8825-4fb3a3775669",
      "name": "Красноярск",
      "coordinate": {
        "lng": 92.852572,
        "lat": 56.010569
      }
    },
    {
      "id": "07e88f11-bc3f-4919-bb72-6fdb524dce20",
      "name": "Липецк",
      "coordinate": {
        "lng": 39.599229,
        "lat": 52.608826
      }
    },
    {
      "id": "878d2c05-e279-40e4-804e-62be099bd72c",
      "name": "Магнитогорск",
      "coordinate": {
        "lng": 58.980291,
        "lat": 53.407163
      }
    },
    {
      "id": "50373fce-a575-454f-93a1-15f17a1289b6",
      "name": "Махачкала",
      "coordinate": {
        "lng": 47.51263,
        "lat": 42.96663
      }
    },
    {
      "id": "4fdfbd10-3459-46cc-8eea-cfd35935e7d5",
      "name": "Минск",
      "coordinate": {
        "lng": 27.561831,
        "lat": 53.902284
      }
    },
    {
      "id": "2e0816d8-efdd-4b7e-bb6e-2ddce75347d5",
      "name": "Нижневартовск",
      "coordinate": {
        "lng": 76.558902,
        "lat": 60.938545
      }
    },
    {
      "id": "1315335d-cea9-4a80-8331-a40b76b8e9f2",
      "name": "Нижний Новгород",
      "coordinate": {
        "lng": 44.023225,
        "lat": 56.331927
      }
    },
    {
      "id": "23c1eec1-1fd5-4b13-afe7-742128da5a5b",
      "name": "Новокузнецк",
      "coordinate": {
        "lng": 87.136053,
        "lat": 53.757553
      }
    },
    {
      "id": "1d5c74ec-9796-4fee-b5fe-6cfab58b1a04",
      "name": "Новороссийск",
      "coordinate": {
        "lng": 37.7675,
        "lat": 44.7244
      }
    },
    {
      "id": "a9f061ef-0ce6-49b9-8857-a35bb5bfa085",
      "name": "Новосибирск",
      "coordinate": {
        "lng": 82.952150634766,
        "lat": 55.004932246396
      }
    },
    {
      "id": "4b83ab96-5985-4b17-8ff8-87ae9382b821",
      "name": "Новосибирск-Академ",
      "coordinate": {
        "lng": 83.096466064453,
        "lat": 54.8532917211629
      }
    },
    {
      "id": "8a1f43d5-cc52-4ca2-9b1c-5046160bc4eb",
      "name": "Нур-Султан",
      "coordinate": {
        "lng": 71.43581,
        "lat": 51.143975
      }
    },
    {
      "id": "5825f3b7-cbed-4369-be9a-a359e63fd6e8",
      "name": "Омск",
      "coordinate": {
        "lng": 73.368221,
        "lat": 54.989347
      }
    },
    {
      "id": "9a603e58-8012-4973-90a8-986f1d9f0094",
      "name": "Оренбург",
      "coordinate": {
        "lng": 55.096964,
        "lat": 51.768205
      }
    },
    {
      "id": "4b9b3ce3-712b-4d07-bcf5-444ffe24947b",
      "name": "Пермь",
      "coordinate": {
        "lng": 56.229443,
        "lat": 58.010455
      }
    },
    {
      "id": "5f1fc017-a434-42a0-bfd2-593e43cffd32",
      "name": "Ростов-на-Дону",
      "coordinate": {
        "lng": 39.720349,
        "lat": 47.222078
      }
    },
    {
      "id": "822a151f-ab6e-4e6e-87b1-e97714aa8151",
      "name": "Рязань",
      "coordinate": {
        "lng": 39.727519,
        "lat": 54.6376691
      }
    },
    {
      "id": "525f7e75-25c7-406b-81ab-396c5239e9ab",
      "name": "Самара",
      "coordinate": {
        "lng": 50.100193,
        "lat": 53.195878
      }
    },
    {
      "id": "5537c2e1-c044-4a85-b6ef-20bf70a97e72",
      "name": "Саратов",
      "coordinate": {
        "lng": 46.034266,
        "lat": 51.533562
      }
    },
    {
      "id": "8a15d16e-5620-4da0-a4a6-42a2394a725c",
      "name": "Сочи",
      "coordinate": {
        "lng": 39.75059509277344,
        "lat": 43.606996483663224
      }
    },
    {
      "id": "4d7bc500-2217-4c1f-b325-64d2e5c0a572",
      "name": "Ставрополь",
      "coordinate": {
        "lng": 41.96911,
        "lat": 45.043317
      }
    },
    {
      "id": "dabaccc4-1981-4214-97e0-0124a64d0626",
      "name": "Стерлитамак",
      "coordinate": {
        "lng": 55.93268,
        "lat": 53.63011
      }
    },
    {
      "id": "26acb087-d8b0-4ba0-b5b3-b6471ad90f8c",
      "name": "Сургут",
      "coordinate": {
        "lng": 73.393032,
        "lat": 61.241778
      }
    },
    {
      "id": "9b3fb791-e9b7-436f-b2c7-fe3be596ee83",
      "name": "Тверь",
      "coordinate": {
        "lng": 35.91186,
        "lat": 56.859625
      }
    },
    {
      "id": "d2c0851d-b982-4375-9250-d31889770cc1",
      "name": "Тольятти",
      "coordinate": {
        "lng": 49.420411,
        "lat": 53.507852
      }
    },
    {
      "id": "309878ee-a33e-4806-933e-26d86c0d44d4",
      "name": "Томск",
      "coordinate": {
        "lng": 84.95222,
        "lat": 56.48861
      }
    },
    {
      "id": "452160d0-420f-4947-8fa6-db3aafbde161",
      "name": "Тула",
      "coordinate": {
        "lng": 37.61667,
        "lat": 54.2
      }
    },
    {
      "id": "4dd6ccbc-ed90-4711-8304-0bd0b3e5c5d4",
      "name": "Тюмень",
      "coordinate": {
        "lng": 65.53333,
        "lat": 57.15
      }
    },
    {
      "id": "2d9a957f-64e5-4fe2-8a77-632c0d30a0ed",
      "name": "Улан-Удэ",
      "coordinate": {
        "lng": 107.584547,
        "lat": 51.834809
      }
    },
    {
      "id": "ec287f2d-211c-4f11-a7c4-468c7208b56a",
      "name": "Уфа",
      "coordinate": {
        "lng": 55.96667,
        "lat": 54.73333
      }
    },
    {
      "id": "64cff166-4ff6-42fa-9004-9bb8924ef867",
      "name": "Хабаровск",
      "coordinate": {
        "lng": 135.071917,
        "lat": 48.480229
      }
    },
    {
      "id": "bcf62b8b-02ec-4a3f-a4f1-b143e81208f8",
      "name": "Чебоксары",
      "coordinate": {
        "lng": 47.247728,
        "lat": 56.139918
      }
    },
    {
      "id": "e2c1ac1d-b1d7-443c-8815-edfe510a3022",
      "name": "Челябинск",
      "coordinate": {
        "lng": 61.395034,
        "lat": 55.159258
      }
    },
    {
      "id": "3c8114bc-3867-49f0-bfd9-d1aa860659d9",
      "name": "Череповец",
      "coordinate": {
        "lng": 37.903443,
        "lat": 59.122672
      }
    },
    {
      "id": "1862ab9a-bce7-4651-8327-4aa5944f3af5",
      "name": "Чита",
      "coordinate": {
        "lng": 113.501049,
        "lat": 52.033635
      }
    },
    {
      "id": "5ad071cf-9b0e-49c0-8dfe-98b80de837c3",
      "name": "Южно-Сахалинск",
      "coordinate": {
        "lng": 142.729587,
        "lat": 46.957771
      }
    },
    {
      "id": "14b043bb-b6c4-48b1-98b9-4438a7da5442",
      "name": "Якутск",
      "coordinate": {
        "lng": 129.732178,
        "lat": 62.027221
      }
    },
    {
      "id": "4418eeef-5492-426e-b014-23c2b9e70f73",
      "name": "Ярославль",
      "coordinate": {
        "lng": 39.893813,
        "lat": 57.626559
      }
    }
  ]
}